<?xml version="1.0" encoding="UTF-8" standalone="yes"?>
<results xmlns="http://gisgraphy.com"><numFound>50</numFound><QTime>1780</QTime><result><distance>32.495458718956</distance><gid>492689</gid><oneWay>false</oneWay><countryCode>FR</countryCode><length>9.06657377403012E-4</length><lat>48.853125279945736</lat><lng>2.3489075432744517</lng></result><result><distance>65.9132500678295</distance><gid>215781</gid><oneWay>false</oneWay><countryCode>FR</countryCode><length>0.00156169664147557</length><lat>48.85316426666701</lat><lng>2.3479792942963873</lng></result><result><name>Place Jean-Paul II</name><distance>67.7944241333163</distance><gid>70391</gid><oneWay>true</oneWay><countryCode>FR</countryCode><length>0.0020051295070395</length><lat>48.85381963598093</lat><lng>2.3481152814607724</lng></result><result><name>Crypte archéologique</name><distance>88.0926514783149</distance><gid>492444</gid><oneWay>false</oneWay><countryCode>FR</countryCode><length>5.8706899084162E-5</length><lat>48.85365365</lat><lng>2.34765485</lng></result><result><name>Pont au Double</name><distance>100.04859949844</distance><gid>492459</gid><oneWay>false</oneWay><countryCode>FR</countryCode><length>3.97087496655538E-4</length><lat>48.8525359</lat><lng>2.3484684</lng></result><result><distance>109.433143805496</distance><gid>492402</gid><oneWay>false</oneWay><countryCode>FR</countryCode><length>0.00165196193963466</length><lat>48.85267862147535</lat><lng>2.3477971390005705</lng></result><result><name>Rue Arcole</name><distance>112.524702874838</distance><gid>215861</gid><oneWay>true</oneWay><countryCode>FR</countryCode><length>0.00199460003509753</length><lat>48.85422238430066</lat><lng>2.3497145635774226</lng></result><result><name>Pont au Double</name><distance>122.182570233062</distance><gid>492458</gid><oneWay>false</oneWay><countryCode>FR</countryCode><length>5.73781317235073E-5</length><lat>48.8523498</lat><lng>2.34835455</lng></result><result><name>Petit Pont</name><distance>123.53461902892</distance><gid>215735</gid><oneWay>true</oneWay><countryCode>FR</countryCode><length>1.74775398727635E-4</length><lat>48.8534668</lat><lng>2.3471138</lng></result><result><name>Petit Pont</name><distance>134.749769753037</distance><gid>215730</gid><oneWay>true</oneWay><countryCode>FR</countryCode><length>3.41112679331065E-4</length><lat>48.85325025</lat><lng>2.34697405</lng></result><result><name>Quai de Montebello</name><distance>136.134913456421</distance><gid>85032</gid><oneWay>true</oneWay><countryCode>FR</countryCode><length>0.00389743747223823</length><lat>48.852190864686825</lat><lng>2.348610767416063</lng></result><result><name>Rue du Cloître Notre Dame</name><distance>143.751841521312</distance><gid>70404</gid><oneWay>true</oneWay><countryCode>FR</countryCode><length>0.00321802349276707</length><lat>48.85307514229949</lat><lng>2.350698136270378</lng></result><result><name>Petit Pont</name><distance>146.071807958958</distance><gid>215729</gid><oneWay>true</oneWay><countryCode>FR</countryCode><length>7.50023999581573E-5</length><lat>48.8530698</lat><lng>2.3468711</lng></result><result><name>Rue Massillon</name><distance>146.642548701804</distance><gid>70424</gid><oneWay>true</oneWay><countryCode>FR</countryCode><length>5.84451785863885E-4</length><lat>48.8533335</lat><lng>2.35080095</lng></result><result><name>Rue Chanoinesse</name><distance>151.285442143927</distance><gid>26189</gid><oneWay>false</oneWay><countryCode>FR</countryCode><length>0.00203647171598611</length><lat>48.853748735585285</lat><lng>2.350802112131626</lng></result><result><name>Rue de la Bûcherie</name><distance>152.494062706688</distance><gid>215602</gid><oneWay>true</oneWay><countryCode>FR</countryCode><length>8.36132585181252E-4</length><lat>48.85262122807489</lat><lng>2.3470936725750686</lng></result><result><name>Rue de la Cité</name><distance>153.031245347408</distance><gid>215752</gid><oneWay>true</oneWay><countryCode>FR</countryCode><length>0.00243771737492049</length><lat>48.854602495337424</lat><lng>2.3477589327465553</lng></result><result><distance>167.903724237683</distance><gid>215853</gid><oneWay>false</oneWay><countryCode>FR</countryCode><length>0.00329837295647537</length><lat>48.85220408963001</lat><lng>2.350183460236183</lng></result><result><name>Rue Saint Julien Le Pauvre</name><distance>169.513692920305</distance><gid>215608</gid><oneWay>true</oneWay><countryCode>FR</countryCode><length>0.0010762845162849</length><lat>48.85231491226386</lat><lng>2.3471862615570043</lng></result><result><name>Rue de la Colombe</name><distance>173.049560790168</distance><gid>215995</gid><oneWay>true</oneWay><countryCode>FR</countryCode><length>8.65621649452078E-4</length><lat>48.854542006131425</lat><lng>2.350421129981358</lng></result><result><name>Rue du Petit Pont; Place du Petit Pont</name><distance>185.547018358565</distance><gid>215589</gid><oneWay>true</oneWay><countryCode>FR</countryCode><length>0.00104753316415671</length><lat>48.8525784534006</lat><lng>2.346600231740901</lng></result><result><distance>193.020339555045</distance><gid>492861</gid><oneWay>false</oneWay><countryCode>FR</countryCode><length>9.89576323488079E-4</length><lat>48.85247605</lat><lng>2.35102485</lng></result><result><name>Rue du Chat qui pêche</name><distance>194.607557619398</distance><gid>215577</gid><oneWay>false</oneWay><countryCode>FR</countryCode><length>4.05576490936491E-4</length><lat>48.853036900000006</lat><lng>2.34620085</lng></result><result><name>Rue des Chantres</name><distance>194.892573146234</distance><gid>70436</gid><oneWay>true</oneWay><countryCode>FR</countryCode><length>5.91156459829612E-4</length><lat>48.85363399782291</lat><lng>2.351441623265185</lng></result><result><name>Rue de la Bûcherie</name><distance>195.094036764093</distance><gid>85012</gid><oneWay>true</oneWay><countryCode>FR</countryCode><length>0.0014202845419143</length><lat>48.85165450187776</lat><lng>2.348758217476104</lng></result><result><name>Rue des Ursins</name><distance>196.199489556963</distance><gid>85097</gid><oneWay>true</oneWay><countryCode>FR</countryCode><length>0.00140778556605663</length><lat>48.85424616627559</lat><lng>2.351160375091116</lng></result><result><name>Place Louis Lépine</name><distance>201.859314132701</distance><gid>443696</gid><oneWay>false</oneWay><countryCode>FR</countryCode><length>3.46789849908615E-4</length><lat>48.85499046782024</lat><lng>2.347445751358389</lng></result><result><name>Rue de l'Hôtel Colbert</name><distance>201.98682022808</distance><gid>215689</gid><oneWay>true</oneWay><countryCode>FR</countryCode><length>0.00134806470542092</length><lat>48.85159600151897</lat><lng>2.3486237632882303</lng></result><result><name>Quai du Marché Neuf</name><distance>208.375976276964</distance><gid>492593</gid><oneWay>false</oneWay><countryCode>FR</countryCode><length>0.00234015247366394</length><lat>48.853915799999996</lat><lng>2.3460581</lng></result><result><name>Pont d'Arcole</name><distance>214.406040162487</distance><gid>216022</gid><oneWay>true</oneWay><countryCode>FR</countryCode><length>7.21227425978829E-5</length><lat>48.85504635</lat><lng>2.3503472</lng></result><result><name>Rue du Haut Pavé</name><distance>214.821772529385</distance><gid>85076</gid><oneWay>true</oneWay><countryCode>FR</countryCode><length>3.96728584803587E-4</length><lat>48.8515338</lat><lng>2.34950745</lng></result><result><name>Rue Xavier Privas</name><distance>217.550914093676</distance><gid>215707</gid><oneWay>false</oneWay><countryCode>FR</countryCode><length>4.0228954746451E-4</length><lat>48.8531335</lat><lng>2.3458560999999998</lng></result><result><name>Quai de la Corse</name><distance>221.085683577164</distance><gid>70401</gid><oneWay>true</oneWay><countryCode>FR</countryCode><length>0.00203795906239397</length><lat>48.855361448004054</lat><lng>2.3493695349329067</lng></result><result><name>Quai aux Fleurs</name><distance>225.887281433644</distance><gid>216021</gid><oneWay>true</oneWay><countryCode>FR</countryCode><length>0.00308723879866884</length><lat>48.85411586398828</lat><lng>2.3516943063835787</lng></result><result><name>Rue du Fouarre</name><distance>226.772170370024</distance><gid>215766</gid><oneWay>true</oneWay><countryCode>FR</countryCode><length>5.04404460726518E-4</length><lat>48.85153915</lat><lng>2.3475619500000002</lng></result><result><name>Rue Galande</name><distance>228.875309160396</distance><gid>215588</gid><oneWay>true</oneWay><countryCode>FR</countryCode><length>0.00119732278020518</length><lat>48.851815769797774</lat><lng>2.346819041039158</lng></result><result><name>Rue de Lutèce</name><distance>232.010947538332</distance><gid>215133</gid><oneWay>false</oneWay><countryCode>FR</countryCode><length>0.00200332845534666</length><lat>48.85507893355926</lat><lng>2.3468990860197882</lng></result><result><name>Quai Saint-Michel</name><distance>234.040160318156</distance><gid>84781</gid><oneWay>true</oneWay><countryCode>FR</countryCode><length>0.00260892352704965</length><lat>48.85339021898383</lat><lng>2.3456012592023145</lng></result><result><distance>235.284469363768</distance><gid>492686</gid><oneWay>false</oneWay><countryCode>FR</countryCode><length>0.00410136672951643</length><lat>48.85159793328044</lat><lng>2.350463391458285</lng></result><result><name>Rue Lagrange</name><distance>242.404165284123</distance><gid>215816</gid><oneWay>true</oneWay><countryCode>FR</countryCode><length>0.00210411718304594</length><lat>48.851289460653575</lat><lng>2.348023927706153</lng></result><result><name>Rue des Grands Degrés</name><distance>246.677039816446</distance><gid>85075</gid><oneWay>true</oneWay><countryCode>FR</countryCode><length>8.68765860287351E-4</length><lat>48.851296027172616</lat><lng>2.349827932068222</lng></result><result><name>Rue de la Huchette</name><distance>249.890706908423</distance><gid>492496</gid><oneWay>true</oneWay><countryCode>FR</countryCode><length>0.00259252508570254</length><lat>48.853038206363046</lat><lng>2.3454312668259925</lng></result><result><name>Rue Galande</name><distance>251.471695099451</distance><gid>215765</gid><oneWay>true</oneWay><countryCode>FR</countryCode><length>7.66770904508312E-4</length><lat>48.85126970683082</lat><lng>2.347684396112274</lng></result><result><name>Pont d'Arcole</name><distance>257.224187723609</distance><gid>492852</gid><oneWay>false</oneWay><countryCode>FR</countryCode><length>7.83191675134953E-4</length><lat>48.8554017</lat><lng>2.3505851</lng></result><result><name>Rue Xavier Privas</name><distance>258.105869434014</distance><gid>215666</gid><oneWay>false</oneWay><countryCode>FR</countryCode><length>8.10081934127167E-4</length><lat>48.852690490703544</lat><lng>2.3454454018547684</lng></result><result><name>Rue des Trois Portes</name><distance>258.303643725994</distance><gid>85010</gid><oneWay>true</oneWay><countryCode>FR</countryCode><length>0.00107642892937498</length><lat>48.851089200000004</lat><lng>2.3486098</lng></result><result><name>Impasse Maubert</name><distance>260.704596931828</distance><gid>492718</gid><oneWay>false</oneWay><countryCode>FR</countryCode><length>5.52381652483083E-4</length><lat>48.8511143</lat><lng>2.34953235</lng></result><result><name>Rue Saint Séverin</name><distance>267.643792031899</distance><gid>84974</gid><oneWay>true</oneWay><countryCode>FR</countryCode><length>0.00162112159013532</length><lat>48.852308242671036</lat><lng>2.3455466765413897</lng></result><result><name>Pont Saint-Louis</name><distance>271.664023333857</distance><gid>492920</gid><oneWay>false</oneWay><countryCode>FR</countryCode><length>1.57652941614395E-4</length><lat>48.8526052</lat><lng>2.35230635</lng></result><result><name>Quai de l'Archevêché</name><distance>272.442194793666</distance><gid>215955</gid><oneWay>false</oneWay><countryCode>FR</countryCode><length>9.61753861445483E-4</length><lat>48.85216131193203</lat><lng>2.3520047803724426</lng></result></results>